{"status":0,"msg":"","data":{"site_data":{"country":"United Kingdom","lat":51.501364,"lng":-0.14189,"elevation":6.36,"formatted_address":"London SW1A 1AA, UK","address_components":[{"long_name":"London","short_name":"London","types":["postal_town"]},{"long_name":"Greater London","short_name":"Greater London","types":["administrative_area_level_2","political"]},{"long_name":"England","short_name":"England","types":["administrative_area_level_1","political"]},{"long_name":"United Kingdom","short_name":"GB","types":["country","political"]},{"long_name":"SW1A 1AA","short_name":"SW1A 1AA","types":["postal_code"]}],"address":"Buckingham Palace"},"wind_data":{"uk_ireland_contour":21.628169095538357,"distance_from_shore":{"0":{"distance":233.92573712464545,"lat":53.60510578995467,"lng":-0.1418899999999966},"30":{"distance":174.5852678317777,"lat":52.98168910830151,"lng":0.7127760997660391},"60":{"distance":177.0506609203957,"lat":52.59120706421451,"lng":1.7457735594960753},"90":{"distance":41.181731709205565,"lat":51.501364,"lng":0.4530643696564095},"120":{"distance":93.81461469203565,"lat":50.92955318537788,"lng":0.848515383242854},"150":{"distance":87.59647712117722,"lat":50.76070196216519,"lng":0.28573142692245845},"180":{"distance":75.56795197410439,"lat":50.8217660194473,"lng":-0.14189000000000312},"210":{"distance":82.69978454263115,"lat":50.80206940300003,"lng":-0.5456279238207871},"240":{"distance":108.6754204789141,"lat":50.83932183343604,"lng":-1.2885806692417743},"270":{"distance":178.00427212485945,"lat":51.50136400000001,"lng":-2.7136510607407134},"300":{"distance":299.1604269274889,"lat":53.35144920311804,"lng":-3.346331570131801},"330":{"distance":535.9209854230836,"lat":56.063759444863635,"lng":-2.775990238241528}},"wind_speed_unit":"m/s","wind_speed":22},"snow_data":{"snow_region":"zone3","snow_load_unit":"kpa","snow_load":0.5},"seismic_data":{}}}